source_query,area,name,address,city,state,zip,phone,website,maps_url,place_id,google_rating,review_count,site_score_1_10,score_breakdown_json,score_reasons,crawl_status,crawl_notes,last_crawled_utc,latitude,longitude
trailer park,"Key West, FL",Poinciana Mobile Home Park,"1300 15th Ct, Key West, FL 33040",Key West,FL,33040,(305) 294-5603,,https://www.google.com/maps/place/?q=place_id:ChIJqwAXpEax0YgRe_oqtFssFJc,ChIJqwAXpEax0YgRe_oqtFssFJc,3.5,19,1,{},No website,no_website,,2025-12-18T20:01:53.759343+00:00,24.5661983,-81.7626113
trailer park,"Key West, FL",Stadium Mobile Home Park,"3215 Duck Ave, Key West, FL 33040",Key West,FL,33040,(305) 294-1200,,https://www.google.com/maps/place/?q=place_id:ChIJv-PwZEax0YgR9fM-Fy92234,ChIJv-PwZEax0YgR9fM-Fy92234,3.3,60,1,{},No website,no_website,,2025-12-18T20:01:53.759536+00:00,24.5638844,-81.7641272
RV park,"Key West, FL",Sigsbee Rv Park,"Maine Rd, Key West, FL 33040",Key West,FL,33040,,,https://www.google.com/maps/place/?q=place_id:ChIJlaboWSyz0YgRuKOrxbTUxqQ,ChIJlaboWSyz0YgRuKOrxbTUxqQ,4.2,41,1,{},No website,no_website,,2025-12-18T20:01:53.759551+00:00,24.5843229,-81.7687602
mobile home park,"Key West, FL",Key West Vacation Properties and Realty,"323 Fleming St, Key West, FL 33040",Key West,FL,33040,(305) 296-6667,http://www.kwvpr.com/,https://www.google.com/maps/place/?q=place_id:ChIJXXxESWux0YgRovzqAhcT648,ChIJXXxESWux0YgRovzqAhcT648,4.9,155,9,"{""technical"": 9, ""mobile"": 10, ""performance"": 10, ""conversion"": 8, ""trust"": 7, ""modernity"": 10}",Title too long; Email not visible,success,Crawled 4 page(s),2025-12-18T20:01:53.760074+00:00,24.5551182,-81.8046481
RV park,"Key West, FL",Sigsbee Campground,"Arthur Sawyer Dr, Key West, FL 33040",Key West,FL,33040,(305) 293-4432,https://www.navymwrkeywest.com/programs/670c3376-010c-4dc3-a080-cd52f68841af,https://www.google.com/maps/place/?q=place_id:ChIJt8Bg3FSx0YgRZRV4eTrviFg,ChIJt8Bg3FSx0YgRZRV4eTrviFg,4.3,235,9,"{""technical"": 7, ""mobile"": 10, ""performance"": 10, ""conversion"": 10, ""trust"": 7, ""modernity"": 10}",Missing meta description,success,Crawled 4 page(s),2025-12-18T20:01:53.759658+00:00,24.581055,-81.777597
mobile home park,"Key West, FL",Key West Luxury Real Estate Inc,"619 Eaton St #2, Key West, FL 33040",Key West,FL,33040,(305) 849-8683,https://www.keywestluxuryrealestateinc.com/,https://www.google.com/maps/place/?q=place_id:ChIJQ-B5aeq20YgRxo7qshdcU3E,ChIJQ-B5aeq20YgRxo7qshdcU3E,5,8,9,"{""technical"": 9, ""mobile"": 10, ""performance"": 10, ""conversion"": 8, ""trust"": 7, ""modernity"": 10}",Title too long; Email not visible,success,Crawled 4 page(s),2025-12-18T20:01:53.759946+00:00,24.5582672,-81.8017589
